{
  "type": "FeatureCollection",
  "features": [
    {"type": "Feature", "properties": {"name": "Brownington Pond", "waterbody": "Brownington Pond", "town": "Brownington", "county": "Orleans", "accessType": "Boating/Fishing", "boatSize": "Medium", "rampType": "Concrete Plank", "hasDock": false}, "geometry": {"type": "Point", "coordinates": [-72.1515, 44.8797]}},
    {"type": "Feature", "properties": {"name": "Burr Pond", "waterbody": "Burr Pond", "town": "Sudbury", "county": "Rutland", "accessType": "Boating/Fishing", "boatSize": "Small", "rampType": "Gravel", "hasDock": false}, "geometry": {"type": "Point", "coordinates": [-73.1824, 43.7684]}},
    {"type": "Feature", "properties": {"name": "Barton River", "waterbody": "Barton River", "town": "Glover", "county": "Orleans", "accessType": "Shore Fishing", "boatSize": "No defined ramp", "rampType": "None", "hasDock": false}, "geometry": {"type": "Point", "coordinates": [-72.1857, 44.7224]}},
    {"type": "Feature", "properties": {"name": "C.C.C. Pond", "waterbody": "C.C.C. Pond", "town": "Sharon", "county": "Windsor", "accessType": "Boating/Fishing", "boatSize": "Small", "rampType": "Gravel", "hasDock": false}, "geometry": {"type": "Point", "coordinates": [-72.3925, 43.8163]}},
    {"type": "Feature", "properties": {"name": "Center Pond", "waterbody": "Center Pond", "town": "Newark", "county": "Caledonia", "accessType": "Boating/Fishing", "boatSize": "Small", "rampType": "Gravel", "hasDock": false}, "geometry": {"type": "Point", "coordinates": [-71.9225, 44.7145]}},
    {"type": "Feature", "properties": {"name": "Charcoal Creek", "waterbody": "Charcoal Creek", "town": "Swanton", "county": "Franklin", "accessType": "Shore Fishing", "boatSize": "No defined ramp", "rampType": "None", "hasDock": false}, "geometry": {"type": "Point", "coordinates": [-73.1812, 44.9702]}},
    {"type": "Feature", "properties": {"name": "Chittenden Reservoir", "waterbody": "Chittenden Reservoir", "town": "Chittenden", "county": "Rutland", "accessType": "Boating/Fishing", "boatSize": "Medium", "rampType": "Gravel", "hasDock": false}, "geometry": {"type": "Point", "coordinates": [-72.9211, 43.7232]}},
    {"type": "Feature", "properties": {"name": "Clark's Pond", "waterbody": "Clark's Pond", "town": "Glover", "county": "Orleans", "accessType": "Boating/Fishing", "boatSize": "Small", "rampType": "Gravel", "hasDock": false}, "geometry": {"type": "Point", "coordinates": [-72.2023, 44.6461]}},
    {"type": "Feature", "properties": {"name": "Clyde River (Brighton)", "waterbody": "Clyde River", "town": "Brighton", "county": "Essex", "accessType": "Boating/Fishing", "boatSize": "Carry-on", "rampType": "Steps", "hasDock": false}, "geometry": {"type": "Point", "coordinates": [-71.9149, 44.8017]}},
    {"type": "Feature", "properties": {"name": "Clyde River (Charleston)", "waterbody": "Clyde River", "town": "Charleston", "county": "Orleans", "accessType": "Boating/Fishing", "boatSize": "Carry-on", "rampType": "Steps", "hasDock": false}, "geometry": {"type": "Point", "coordinates": [-71.9739, 44.8276]}},
    {"type": "Feature", "properties": {"name": "Coits Pond", "waterbody": "Coits Pond", "town": "Cabot", "county": "Washington", "accessType": "Boating/Fishing", "boatSize": "Carry-on", "rampType": "None", "hasDock": false}, "geometry": {"type": "Point", "coordinates": [-72.3253, 44.4439]}},
    {"type": "Feature", "properties": {"name": "Colby Pond", "waterbody": "Colby Pond", "town": "Plymouth", "county": "Windsor", "accessType": "Boating/Fishing", "boatSize": "Small", "rampType": "Gravel", "hasDock": false}, "geometry": {"type": "Point", "coordinates": [-72.6652, 43.4736]}},
    {"type": "Feature", "properties": {"name": "Colton Pond", "waterbody": "Colton Pond", "town": "Killington", "county": "Rutland", "accessType": "Boating/Fishing", "boatSize": "Small", "rampType": "Concrete Plank", "hasDock": false}, "geometry": {"type": "Point", "coordinates": [-72.8158, 43.6967]}},
    {"type": "Feature", "properties": {"name": "Converse Bay", "waterbody": "Lake Champlain", "town": "Charlotte", "county": "Chittenden", "accessType": "Boating/Fishing", "boatSize": "Medium", "rampType": "Concrete", "hasDock": true}, "geometry": {"type": "Point", "coordinates": [-73.2914, 44.295]}},
    {"type": "Feature", "properties": {"name": "Crystal Lake", "waterbody": "Crystal Lake", "town": "Barton", "county": "Orleans", "accessType": "Boating/Fishing", "boatSize": "Large", "rampType": "Concrete", "hasDock": true}, "geometry": {"type": "Point", "coordinates": [-72.1459, 44.7193]}},
    {"type": "Feature", "properties": {"name": "Curtis Pond", "waterbody": "Curtis Pond", "town": "Calais", "county": "Washington", "accessType": "Boating/Fishing", "boatSize": "Small", "rampType": "Gravel", "hasDock": true}, "geometry": {"type": "Point", "coordinates": [-72.5007, 44.3765]}},
    {"type": "Feature", "properties": {"name": "Daniels Pond", "waterbody": "Daniels Pond", "town": "Glover", "county": "Orleans", "accessType": "Boating/Fishing", "boatSize": "Small", "rampType": "Gravel", "hasDock": false}, "geometry": {"type": "Point", "coordinates": [-72.2572, 44.6742]}},
    {"type": "Feature", "properties": {"name": "Dead Creek", "waterbody": "Dead Creek", "town": "Addison", "county": "Addison", "accessType": "Boating/Fishing", "boatSize": "Medium", "rampType": "Gravel", "hasDock": false}, "geometry": {"type": "Point", "coordinates": [-73.3453, 44.085]}},
    {"type": "Feature", "properties": {"name": "Derby Pond", "waterbody": "Derby Pond", "town": "Derby", "county": "Orleans", "accessType": "Boating/Fishing", "boatSize": "Medium", "rampType": "Concrete Plank", "hasDock": false}, "geometry": {"type": "Point", "coordinates": [-72.1222, 44.9587]}},
    {"type": "Feature", "properties": {"name": "Dillenbeck Bay", "waterbody": "Lake Champlain", "town": "Alburg", "county": "Grand Isle", "accessType": "Boating/Fishing", "boatSize": "Small", "rampType": "Concrete", "hasDock": true}, "geometry": {"type": "Point", "coordinates": [-73.276, 44.9163]}},
    {"type": "Feature", "properties": {"name": "Lamoille River - Dorothy Smith", "waterbody": "Lamoille River", "town": "Cambridge", "county": "Lamoille", "accessType": "Boating/Fishing", "boatSize": "Carry-on", "rampType": "None", "hasDock": false}, "geometry": {"type": "Point", "coordinates": [-72.8298, 44.6498]}},
    {"type": "Feature", "properties": {"name": "Dufresne Dam", "waterbody": "Dufresne Pond", "town": "Manchester", "county": "Bennington", "accessType": "Shore Fishing", "boatSize": "No defined ramp", "rampType": "None", "hasDock": false}, "geometry": {"type": "Point", "coordinates": [-73.0302, 43.1791]}},
    {"type": "Feature", "properties": {"name": "Dufresne Pond", "waterbody": "Dufresne Pond", "town": "Manchester", "county": "Bennington", "accessType": "Shore Fishing", "boatSize": "No defined ramp", "rampType": "None", "hasDock": false}, "geometry": {"type": "Point", "coordinates": [-73.0241, 43.1817]}},
    {"type": "Feature", "properties": {"name": "Echo Lake Charleston", "waterbody": "Echo Lake", "town": "Charleston", "county": "Orleans", "accessType": "Boating/Fishing", "boatSize": "Small", "rampType": "Gravel", "hasDock": false}, "geometry": {"type": "Point", "coordinates": [-71.9898, 44.8513]}},
    {"type": "Feature", "properties": {"name": "Echo Lake Plymouth", "waterbody": "Echo Lake", "town": "Plymouth", "county": "Windsor", "accessType": "Boating/Fishing", "boatSize": "Medium", "rampType": "Concrete Plank", "hasDock": false}, "geometry": {"type": "Point", "coordinates": [-72.7029, 43.4756]}},
    {"type": "Feature", "properties": {"name": "Ewell Pond", "waterbody": "Ewell Pond", "town": "Peacham", "county": "Caledonia", "accessType": "Boating/Fishing", "boatSize": "Small", "rampType": "Concrete Plank", "hasDock": false}, "geometry": {"type": "Point", "coordinates": [-72.1679, 44.3609]}},
    {"type": "Feature", "properties": {"name": "Fairfield Swamp", "waterbody": "Fairfield Swamp", "town": "Fairfield", "county": "Franklin", "accessType": "Boating/Fishing", "boatSize": "Small", "rampType": "Gravel", "hasDock": false}, "geometry": {"type": "Point", "coordinates": [-72.9981, 44.7882]}},
    {"type": "Feature", "properties": {"name": "Fort Cassin", "waterbody": "Lake Champlain", "town": "Ferrisburg", "county": "Addison", "accessType": "Boating/Fishing", "boatSize": "Large", "rampType": "Concrete", "hasDock": false}, "geometry": {"type": "Point", "coordinates": [-73.3159, 44.2218]}},
    {"type": "Feature", "properties": {"name": "Fosters Pond", "waterbody": "Foster Pond", "town": "Peacham", "county": "Caledonia", "accessType": "Boating/Fishing", "boatSize": "Small", "rampType": "Concrete Plank", "hasDock": false}, "geometry": {"type": "Point", "coordinates": [-72.2146, 44.3294]}},
    {"type": "Feature", "properties": {"name": "Foxstand", "waterbody": "White River", "town": "Royalton", "county": "Windsor", "accessType": "Shore Fishing", "boatSize": "No defined ramp", "rampType": "None", "hasDock": false}, "geometry": {"type": "Point", "coordinates": [-72.5652, 43.823]}},
    {"type": "Feature", "properties": {"name": "Gale Meadows Pond", "waterbody": "Gale Meadows Pond", "town": "Winhall", "county": "Bennington", "accessType": "Boating/Fishing", "boatSize": "Small", "rampType": "Concrete Plank", "hasDock": false}, "geometry": {"type": "Point", "coordinates": [-72.8647, 43.1677]}},
    {"type": "Feature", "properties": {"name": "Thomas Evanoika", "waterbody": "Lake Bomoseen", "town": "Castleton", "county": "Rutland", "accessType": "Boating/Fishing", "boatSize": "Medium", "rampType": "Concrete", "hasDock": true}, "geometry": {"type": "Point", "coordinates": [-73.2012, 43.6741]}},
    {"type": "Feature", "properties": {"name": "Great Averill Pond", "waterbody": "Great Averill Pond", "town": "Averill", "county": "Essex", "accessType": "Boating/Fishing", "boatSize": "Large", "rampType": "Concrete", "hasDock": true}, "geometry": {"type": "Point", "coordinates": [-71.706, 44.9948]}},
    {"type": "Feature", "properties": {"name": "Kehoe", "waterbody": "Lake Bomoseen", "town": "Castleton", "county": "Rutland", "accessType": "Boating/Fishing", "boatSize": "Medium", "rampType": "Concrete", "hasDock": true}, "geometry": {"type": "Point", "coordinates": [-73.2332, 43.6304]}},
    {"type": "Feature", "properties": {"name": "Greenwood Lake", "waterbody": "Greenwood Lake", "town": "Woodbury", "county": "Washington", "accessType": "Boating/Fishing", "boatSize": "Small", "rampType": "Concrete Plank", "hasDock": false}, "geometry": {"type": "Point", "coordinates": [-72.4205, 44.4551]}},
    {"type": "Feature", "properties": {"name": "Harvey Lake", "waterbody": "Harvey Lake", "town": "Barnet", "county": "Caledonia", "accessType": "Boating/Fishing", "boatSize": "Medium", "rampType": "Concrete", "hasDock": true}, "geometry": {"type": "Point", "coordinates": [-72.1394, 44.284]}},
    {"type": "Feature", "properties": {"name": "Connecticut River - Haverill Bridge", "waterbody": "Connecticut River", "town": "Newbury", "county": "Orange", "accessType": "Boating/Fishing", "boatSize": "Medium", "rampType": "Concrete", "hasDock": false}, "geometry": {"type": "Point", "coordinates": [-72.0518, 44.0666]}},
    {"type": "Feature", "properties": {"name": "Holcomb Bay", "waterbody": "Lake Champlain", "town": "Isle La Motte", "county": "Grand Isle", "accessType": "Boating/Fishing", "boatSize": "Medium", "rampType": "Concrete", "hasDock": true}, "geometry": {"type": "Point", "coordinates": [-73.3319, 44.8549]}},
    {"type": "Feature", "properties": {"name": "Holland Pond", "waterbody": "Holland Pond", "town": "Holland", "county": "Orleans", "accessType": "Boating/Fishing", "boatSize": "Small", "rampType": "Concrete Plank", "hasDock": false}, "geometry": {"type": "Point", "coordinates": [-71.9344, 44.9858]}},
    {"type": "Feature", "properties": {"name": "Horicans", "waterbody": "Lake Champlain", "town": "Alburg", "county": "Grand Isle", "accessType": "Boating/Fishing", "boatSize": "Medium", "rampType": "Concrete", "hasDock": false}, "geometry": {"type": "Point", "coordinates": [-73.3136, 44.9139]}},
    {"type": "Feature", "properties": {"name": "Horse Pond", "waterbody": "Horse Pond", "town": "Greensboro", "county": "Orleans", "accessType": "Boating/Fishing", "boatSize": "Small", "rampType": "Gravel", "hasDock": false}, "geometry": {"type": "Point", "coordinates": [-72.2094, 44.6157]}},
    {"type": "Feature", "properties": {"name": "Hortonia Lake", "waterbody": "Hortonia Lake", "town": "Sudbury", "county": "Rutland", "accessType": "Boating/Fishing", "boatSize": "Small", "rampType": "Gravel", "hasDock": true}, "geometry": {"type": "Point", "coordinates": [-73.2107, 43.7524]}},
    {"type": "Feature", "properties": {"name": "Hortonia Lake Dam", "waterbody": "Hortonia Lake", "town": "Hubbardton", "county": "Rutland", "accessType": "Boating/Fishing", "boatSize": "Medium", "rampType": "Concrete Plank", "hasDock": false}, "geometry": {"type": "Point", "coordinates": [-73.2219, 43.7456]}},
    {"type": "Feature", "properties": {"name": "Connecticut River - Hoyts Landing", "waterbody": "Connecticut River", "town": "Springfield", "county": "Windsor", "accessType": "Boating/Fishing", "boatSize": "Large", "rampType": "Concrete", "hasDock": true}, "geometry": {"type": "Point", "coordinates": [-72.4302, 43.2606]}},
    {"type": "Feature", "properties": {"name": "Island Pond", "waterbody": "Island Pond", "town": "Brighton", "county": "Essex", "accessType": "Boating/Fishing", "boatSize": "Medium", "rampType": "Concrete", "hasDock": true}, "geometry": {"type": "Point", "coordinates": [-71.8664, 44.7928]}},
    {"type": "Feature", "properties": {"name": "Job's Pond", "waterbody": "Job's Pond", "town": "Westmore", "county": "Orleans", "accessType": "Boating/Fishing", "boatSize": "Small", "rampType": "Gravel", "hasDock": false}, "geometry": {"type": "Point", "coordinates": [-72.0, 44.6]}},
    {"type": "Feature", "properties": {"name": "Kelly Bay", "waterbody": "Lake Champlain", "town": "Alburg", "county": "Grand Isle", "accessType": "Boating/Fishing", "boatSize": "Medium", "rampType": "Concrete Plank", "hasDock": true}, "geometry": {"type": "Point", "coordinates": [-73.28, 44.95]}},
    {"type": "Feature", "properties": {"name": "Lake Carmi", "waterbody": "Lake Carmi", "town": "Franklin", "county": "Franklin", "accessType": "Boating/Fishing", "boatSize": "Large", "rampType": "Concrete", "hasDock": true}, "geometry": {"type": "Point", "coordinates": [-72.9, 44.95]}},
    {"type": "Feature", "properties": {"name": "Lake Dunmore", "waterbody": "Lake Dunmore", "town": "Salisbury", "county": "Addison", "accessType": "Boating/Fishing", "boatSize": "Medium", "rampType": "Concrete", "hasDock": true}, "geometry": {"type": "Point", "coordinates": [-73.05, 43.9]}},
    {"type": "Feature", "properties": {"name": "Lake Elmore - Vaughn M. Douglass", "waterbody": "Lake Elmore", "town": "Elmore", "county": "Lamoille", "accessType": "Boating/Fishing", "boatSize": "Medium", "rampType": "Concrete", "hasDock": true}, "geometry": {"type": "Point", "coordinates": [-72.52, 44.55]}},
    {"type": "Feature", "properties": {"name": "Lake Groton", "waterbody": "Lake Groton", "town": "Groton", "county": "Caledonia", "accessType": "Boating/Fishing", "boatSize": "Medium", "rampType": "Concrete", "hasDock": true}, "geometry": {"type": "Point", "coordinates": [-72.3, 44.25]}},
    {"type": "Feature", "properties": {"name": "Lake Memphremagog - Newport", "waterbody": "Lake Memphremagog", "town": "Newport", "county": "Orleans", "accessType": "Boating/Fishing", "boatSize": "Large", "rampType": "Concrete", "hasDock": true}, "geometry": {"type": "Point", "coordinates": [-72.2, 44.94]}},
    {"type": "Feature", "properties": {"name": "Lake Parker", "waterbody": "Lake Parker", "town": "Glover", "county": "Orleans", "accessType": "Boating/Fishing", "boatSize": "Medium", "rampType": "Concrete", "hasDock": false}, "geometry": {"type": "Point", "coordinates": [-72.2, 44.63]}},
    {"type": "Feature", "properties": {"name": "Lake Rescue", "waterbody": "Lake Rescue", "town": "Ludlow", "county": "Windsor", "accessType": "Boating/Fishing", "boatSize": "Medium", "rampType": "Concrete", "hasDock": true}, "geometry": {"type": "Point", "coordinates": [-72.73, 43.4]}},
    {"type": "Feature", "properties": {"name": "Lake St. Catherine", "waterbody": "Lake St. Catherine", "town": "Wells", "county": "Rutland", "accessType": "Boating/Fishing", "boatSize": "Large", "rampType": "Concrete", "hasDock": true}, "geometry": {"type": "Point", "coordinates": [-73.22, 43.38]}},
    {"type": "Feature", "properties": {"name": "Lake Willoughby - North", "waterbody": "Lake Willoughby", "town": "Westmore", "county": "Orleans", "accessType": "Boating/Fishing", "boatSize": "Large", "rampType": "Concrete", "hasDock": true}, "geometry": {"type": "Point", "coordinates": [-72.03, 44.78]}},
    {"type": "Feature", "properties": {"name": "Little Averill Pond", "waterbody": "Little Averill Pond", "town": "Averill", "county": "Essex", "accessType": "Boating/Fishing", "boatSize": "Small", "rampType": "Gravel", "hasDock": false}, "geometry": {"type": "Point", "coordinates": [-71.72, 44.98]}},
    {"type": "Feature", "properties": {"name": "Maidstone Lake", "waterbody": "Maidstone Lake", "town": "Maidstone", "county": "Essex", "accessType": "Boating/Fishing", "boatSize": "Medium", "rampType": "Concrete", "hasDock": true}, "geometry": {"type": "Point", "coordinates": [-71.6, 44.58]}},
    {"type": "Feature", "properties": {"name": "Malletts Bay", "waterbody": "Lake Champlain", "town": "Colchester", "county": "Chittenden", "accessType": "Boating/Fishing", "boatSize": "Large", "rampType": "Concrete", "hasDock": true}, "geometry": {"type": "Point", "coordinates": [-73.2, 44.57]}},
    {"type": "Feature", "properties": {"name": "Miles Pond", "waterbody": "Miles Pond", "town": "Concord", "county": "Essex", "accessType": "Boating/Fishing", "boatSize": "Medium", "rampType": "Concrete", "hasDock": false}, "geometry": {"type": "Point", "coordinates": [-71.84, 44.43]}},
    {"type": "Feature", "properties": {"name": "Milton Pond", "waterbody": "Milton Pond", "town": "Milton", "county": "Chittenden", "accessType": "Boating/Fishing", "boatSize": "Small", "rampType": "Gravel", "hasDock": false}, "geometry": {"type": "Point", "coordinates": [-73.08, 44.64]}},
    {"type": "Feature", "properties": {"name": "Missisquoi Bay - East Alburg", "waterbody": "Lake Champlain", "town": "Alburg", "county": "Grand Isle", "accessType": "Boating/Fishing", "boatSize": "Large", "rampType": "Concrete", "hasDock": true}, "geometry": {"type": "Point", "coordinates": [-73.18, 45.0]}},
    {"type": "Feature", "properties": {"name": "Moose River", "waterbody": "Moose River", "town": "Concord", "county": "Essex", "accessType": "Boating/Fishing", "boatSize": "Carry-on", "rampType": "None", "hasDock": false}, "geometry": {"type": "Point", "coordinates": [-71.7, 44.4]}},
    {"type": "Feature", "properties": {"name": "Morrisville Pond", "waterbody": "Morrisville Pond", "town": "Morristown", "county": "Lamoille", "accessType": "Boating/Fishing", "boatSize": "Small", "rampType": "Gravel", "hasDock": false}, "geometry": {"type": "Point", "coordinates": [-72.6, 44.56]}},
    {"type": "Feature", "properties": {"name": "Neal Pond", "waterbody": "Neal Pond", "town": "Lunenburg", "county": "Essex", "accessType": "Boating/Fishing", "boatSize": "Small", "rampType": "Gravel", "hasDock": false}, "geometry": {"type": "Point", "coordinates": [-71.72, 44.5]}},
    {"type": "Feature", "properties": {"name": "Norris Point", "waterbody": "Lake Champlain", "town": "South Hero", "county": "Grand Isle", "accessType": "Boating/Fishing", "boatSize": "Large", "rampType": "Concrete", "hasDock": true}, "geometry": {"type": "Point", "coordinates": [-73.28, 44.63]}},
    {"type": "Feature", "properties": {"name": "Norton Pond", "waterbody": "Norton Pond", "town": "Norton", "county": "Essex", "accessType": "Boating/Fishing", "boatSize": "Medium", "rampType": "Concrete", "hasDock": true}, "geometry": {"type": "Point", "coordinates": [-71.8, 44.98]}},
    {"type": "Feature", "properties": {"name": "Otter Creek - Leicester", "waterbody": "Otter Creek", "town": "Leicester", "county": "Addison", "accessType": "Boating/Fishing", "boatSize": "Medium", "rampType": "Concrete", "hasDock": false}, "geometry": {"type": "Point", "coordinates": [-73.15, 43.87]}},
    {"type": "Feature", "properties": {"name": "Peacham Pond", "waterbody": "Peacham Pond", "town": "Peacham", "county": "Caledonia", "accessType": "Boating/Fishing", "boatSize": "Medium", "rampType": "Concrete", "hasDock": true}, "geometry": {"type": "Point", "coordinates": [-72.18, 44.35]}},
    {"type": "Feature", "properties": {"name": "Pensioner Pond", "waterbody": "Pensioner Pond", "town": "Charleston", "county": "Orleans", "accessType": "Boating/Fishing", "boatSize": "Small", "rampType": "Gravel", "hasDock": false}, "geometry": {"type": "Point", "coordinates": [-71.98, 44.82]}},
    {"type": "Feature", "properties": {"name": "Porter Bay", "waterbody": "Lake Champlain", "town": "Ferrisburg", "county": "Addison", "accessType": "Boating/Fishing", "boatSize": "Medium", "rampType": "Concrete", "hasDock": true}, "geometry": {"type": "Point", "coordinates": [-73.3, 44.18]}},
    {"type": "Feature", "properties": {"name": "Putney Landing", "waterbody": "Connecticut River", "town": "Putney", "county": "Windham", "accessType": "Boating/Fishing", "boatSize": "Small", "rampType": "Concrete", "hasDock": false}, "geometry": {"type": "Point", "coordinates": [-72.5, 42.97]}},
    {"type": "Feature", "properties": {"name": "Seymour Lake", "waterbody": "Seymour Lake", "town": "Morgan", "county": "Orleans", "accessType": "Boating/Fishing", "boatSize": "Large", "rampType": "Concrete", "hasDock": true}, "geometry": {"type": "Point", "coordinates": [-71.87, 44.82]}},
    {"type": "Feature", "properties": {"name": "Shadow Lake (Glover)", "waterbody": "Shadow Lake", "town": "Glover", "county": "Orleans", "accessType": "Boating/Fishing", "boatSize": "Medium", "rampType": "Concrete", "hasDock": true}, "geometry": {"type": "Point", "coordinates": [-72.23, 44.65]}},
    {"type": "Feature", "properties": {"name": "Shelburne Bay", "waterbody": "Lake Champlain", "town": "Shelburne", "county": "Chittenden", "accessType": "Boating/Fishing", "boatSize": "Large", "rampType": "Concrete", "hasDock": true}, "geometry": {"type": "Point", "coordinates": [-73.25, 44.4]}},
    {"type": "Feature", "properties": {"name": "Silver Lake", "waterbody": "Silver Lake", "town": "Barnard", "county": "Windsor", "accessType": "Boating/Fishing", "boatSize": "Medium", "rampType": "Concrete", "hasDock": true}, "geometry": {"type": "Point", "coordinates": [-72.62, 43.72]}},
    {"type": "Feature", "properties": {"name": "Somerset Reservoir", "waterbody": "Somerset Reservoir", "town": "Somerset", "county": "Windham", "accessType": "Boating/Fishing", "boatSize": "Large", "rampType": "Concrete", "hasDock": true}, "geometry": {"type": "Point", "coordinates": [-72.92, 42.95]}},
    {"type": "Feature", "properties": {"name": "South Bay", "waterbody": "Lake Memphremagog", "town": "Newport", "county": "Orleans", "accessType": "Boating/Fishing", "boatSize": "Large", "rampType": "Concrete", "hasDock": true}, "geometry": {"type": "Point", "coordinates": [-72.18, 44.92]}},
    {"type": "Feature", "properties": {"name": "Spectacle Pond", "waterbody": "Spectacle Pond", "town": "Brighton", "county": "Essex", "accessType": "Boating/Fishing", "boatSize": "Small", "rampType": "Gravel", "hasDock": false}, "geometry": {"type": "Point", "coordinates": [-71.92, 44.8]}},
    {"type": "Feature", "properties": {"name": "Stile's Pond", "waterbody": "Stile's Pond", "town": "Waterford", "county": "Caledonia", "accessType": "Boating/Fishing", "boatSize": "Small", "rampType": "Gravel", "hasDock": false}, "geometry": {"type": "Point", "coordinates": [-71.93, 44.38]}},
    {"type": "Feature", "properties": {"name": "Sunset Lake", "waterbody": "Sunset Lake", "town": "Benson", "county": "Rutland", "accessType": "Boating/Fishing", "boatSize": "Medium", "rampType": "Concrete", "hasDock": true}, "geometry": {"type": "Point", "coordinates": [-73.3, 43.68]}},
    {"type": "Feature", "properties": {"name": "Ticklenaked Pond", "waterbody": "Ticklenaked Pond", "town": "Ryegate", "county": "Caledonia", "accessType": "Boating/Fishing", "boatSize": "Small", "rampType": "Gravel", "hasDock": false}, "geometry": {"type": "Point", "coordinates": [-72.1, 44.2]}},
    {"type": "Feature", "properties": {"name": "Tildys Pond", "waterbody": "Tildys Pond", "town": "Sheffield", "county": "Caledonia", "accessType": "Boating/Fishing", "boatSize": "Small", "rampType": "Gravel", "hasDock": false}, "geometry": {"type": "Point", "coordinates": [-72.1, 44.6]}},
    {"type": "Feature", "properties": {"name": "Vantines", "waterbody": "Lake Champlain", "town": "Alburg", "county": "Grand Isle", "accessType": "Boating/Fishing", "boatSize": "Large", "rampType": "Concrete", "hasDock": true}, "geometry": {"type": "Point", "coordinates": [-73.28, 44.98]}},
    {"type": "Feature", "properties": {"name": "Waterbury Reservoir", "waterbody": "Waterbury Reservoir", "town": "Waterbury", "county": "Washington", "accessType": "Boating/Fishing", "boatSize": "Large", "rampType": "Concrete", "hasDock": true}, "geometry": {"type": "Point", "coordinates": [-72.78, 44.38]}},
    {"type": "Feature", "properties": {"name": "West River", "waterbody": "West River", "town": "Brattleboro", "county": "Windham", "accessType": "Boating/Fishing", "boatSize": "Carry-on", "rampType": "None", "hasDock": false}, "geometry": {"type": "Point", "coordinates": [-72.6, 42.87]}},
    {"type": "Feature", "properties": {"name": "Wolcott Pond", "waterbody": "Wolcott Pond", "town": "Wolcott", "county": "Lamoille", "accessType": "Boating/Fishing", "boatSize": "Small", "rampType": "Gravel", "hasDock": false}, "geometry": {"type": "Point", "coordinates": [-72.47, 44.56]}},
    {"type": "Feature", "properties": {"name": "Woodward Reservoir", "waterbody": "Woodward Reservoir", "town": "Plymouth", "county": "Windsor", "accessType": "Boating/Fishing", "boatSize": "Medium", "rampType": "Concrete", "hasDock": true}, "geometry": {"type": "Point", "coordinates": [-72.72, 43.5]}},
    {"type": "Feature", "properties": {"name": "Wrightsville Reservoir", "waterbody": "Wrightsville Reservoir", "town": "Worcester", "county": "Washington", "accessType": "Boating/Fishing", "boatSize": "Medium", "rampType": "Concrete", "hasDock": true}, "geometry": {"type": "Point", "coordinates": [-72.55, 44.33]}}
  ]
}
